"","text","favorited","favoriteCount","replyToSN","created","truncated","replyToSID","id","replyToUID","statusSource","screenName","retweetCount","isRetweet","retweeted","longitude","latitude"
"1","Finally, Nong's restaurant. (@ Nong‚Äôs Khao Man Gai - @nongskhaomangai in Portland, OR) https://t.co/3ykQSpqPHA",FALSE,1,NA,2015-05-03 23:46:56,FALSE,NA,"595011692687433728",NA,"<a href=""http://foursquare.com"" rel=""nofollow"">Foursquare</a>","didip",0,FALSE,FALSE,"-122.65948486","45.52229691"
"2","http://t.co/KYRV3j1KZt

 #PortlandSmallBusinessNetwork #PSBN @ Portland, Oregon https://t.co/xCvb2dBECP",FALSE,0,NA,2015-05-03 23:21:32,FALSE,NA,"595005299653738496",NA,"<a href=""http://instagram.com"" rel=""nofollow"">Instagram</a>","lilypdx",0,FALSE,FALSE,"-122.682","45.52"
"3","#TweetMyJobs #Art #Job alert: Space Planner | BRG | #Portland, OR http://t.co/ZjCigOer4Z #Jobs #Hiring",FALSE,0,NA,2015-05-03 23:16:32,FALSE,NA,"595004039013605377",NA,"<a href=""http://tweetmyjobs.com"" rel=""nofollow"">SafeTweet by TweetMyJOBS</a>","BRGJobs",0,FALSE,FALSE,"-122.6762071","45.5234515"
"4","Killer dogs,  ferociously loving on each other at Portland Saturday Market @ Portland Saturday Market https://t.co/mBVqSQvjid",FALSE,1,NA,2015-05-03 23:16:08,FALSE,NA,"595003940435013632",NA,"<a href=""http://instagram.com"" rel=""nofollow"">Instagram</a>","MrsSiennaMorris",0,FALSE,FALSE,"-122.67067342","45.52252551"
"5","Just posted a photo @ Portland, Oregon U.S.A. https://t.co/0rcLZkOHeK",FALSE,0,NA,2015-05-03 23:16:08,FALSE,NA,"595003937905840128",NA,"<a href=""http://instagram.com"" rel=""nofollow"">Instagram</a>","lilypdx",0,FALSE,FALSE,"-122.67714385","45.52173854"
"6","Spinning #records at pdxbikecommuter til 5. Free burgers/hot dogs and a big ass $ale! #Portland‚Ä¶ https://t.co/wNGxUNHBbi",FALSE,0,NA,2015-05-03 23:15:38,FALSE,NA,"595003814534639616",NA,"<a href=""http://instagram.com"" rel=""nofollow"">Instagram</a>","Moongriffin",0,FALSE,FALSE,"-122.65309254","45.4628966"
"7","Just posted a photo @ Portland, Oregon https://t.co/zNoT0L2h3D",FALSE,0,NA,2015-05-03 23:15:36,FALSE,NA,"595003804594151424",NA,"<a href=""http://instagram.com"" rel=""nofollow"">Instagram</a>","lilypdx",0,FALSE,FALSE,"-122.682","45.52"
"8","Teresa having the new Guacamole sub. (at @Subway in Portland, OR) https://t.co/VI4BOHJuyk",FALSE,0,NA,2015-05-03 23:15:12,FALSE,NA,"595003703968583680",NA,"<a href=""http://foursquare.com"" rel=""nofollow"">Foursquare</a>","braden_bryce",0,FALSE,FALSE,"-122.616241","45.479541"
"9","Just posted a photo @ Downtown, Portland, Oregon https://t.co/yjwWRSeiWt",FALSE,0,NA,2015-05-03 23:12:38,FALSE,NA,"595003057445990400",NA,"<a href=""http://instagram.com"" rel=""nofollow"">Instagram</a>","lilypdx",0,FALSE,FALSE,"-122.67941174","45.51906124"
"10","#Portland, OR #Transportation #Job: Team... at Kelle's Transport Service, Inc. http://t.co/MGuu0kWkjQ #OTR http://t.co/AuKOvt0J7M",FALSE,0,NA,2015-05-03 23:06:27,FALSE,NA,"595001503003189249",NA,"<a href=""http://tweetmyjobs.com"" rel=""nofollow"">SafeTweet by TweetMyJOBS</a>","kellestransport",0,FALSE,FALSE,"-122.6762071","45.5234515"
"11","In between matches. #luchadors #LuchaLibre #pdx #portland @ Tom McCall Waterfront Park https://t.co/kP50sm00sZ",FALSE,3,NA,2015-05-03 23:03:56,FALSE,NA,"595000868614840320",NA,"<a href=""http://instagram.com"" rel=""nofollow"">Instagram</a>","Luchador_Fenix",0,FALSE,FALSE,"-122.6726","45.516"
"12","I'm at Pioneer Place in Portland, OR https://t.co/SvZhJILW8h",FALSE,0,NA,2015-05-03 23:00:19,FALSE,NA,"594999959021322240",NA,"<a href=""http://foursquare.com"" rel=""nofollow"">Foursquare</a>","ashkyv",0,FALSE,FALSE,"-122.67694793","45.51835867"
"13","#Portland #Oregon #craftbeer @ Bailey's Taproom https://t.co/BmFOj64nQf",FALSE,0,NA,2015-05-03 22:59:26,FALSE,NA,"594999737977298945",NA,"<a href=""http://instagram.com"" rel=""nofollow"">Instagram</a>","positivecreep",0,FALSE,FALSE,"-122.67789131","45.52249352"
"14","Mannequin reflecting #pdxnightlife #pdxdowntown #Portland #pdxfun #pdxpromnight #PNW #nighttime @‚Ä¶ https://t.co/5cJx7R48y7",FALSE,0,NA,2015-05-03 22:56:38,FALSE,NA,"594999033271296000",NA,"<a href=""http://instagram.com"" rel=""nofollow"">Instagram</a>","rlklein0234",0,FALSE,FALSE,"-122.67941174","45.51906124"
"15","Every Sunday should be spent this way. #portlandmercado @ Portland Mercado https://t.co/JkYtIK1row",FALSE,3,NA,2015-05-03 22:37:47,FALSE,NA,"594994289513463808",NA,"<a href=""http://instagram.com"" rel=""nofollow"">Instagram</a>","ATRENewspaper",1,FALSE,FALSE,"-122.58868075","45.48618559"
"16","Pioneer Square in Portland, Oregon @ Pioneer Courthouse Square https://t.co/lW9QRyr1nw",FALSE,0,NA,2015-05-03 22:24:54,FALSE,NA,"594991045915615232",NA,"<a href=""http://instagram.com"" rel=""nofollow"">Instagram</a>","CHerringConsult",0,FALSE,FALSE,"-122.67922331","45.51888429"
"17","En el Festival 5 de Mayo @ Portland Waterfront https://t.co/73uaqUzl08",FALSE,0,NA,2015-05-03 22:23:34,FALSE,NA,"594990712179011584",NA,"<a href=""http://instagram.com"" rel=""nofollow"">Instagram</a>","Jenyladiva",0,FALSE,FALSE,"-122.67284106","45.5175795"
"18","#BusinessMgmt #Job in #Portland, OR: Senior Principal Consultant at Oracle http://t.co/9HhtkRJgKP #Jobs #Hiring",FALSE,0,NA,2015-05-03 22:21:54,FALSE,NA,"594990293079883777",NA,"<a href=""http://www.tweetmyjobs.com"" rel=""nofollow"">TweetMyJOBS</a>","JobsAtOracle",0,FALSE,FALSE,"-122.6762071","45.5234515"
"19","I'm at @UnionPine in Portland, OR https://t.co/wKJeQHxFns",FALSE,0,NA,2015-05-03 22:21:10,FALSE,NA,"594990105644900353",NA,"<a href=""http://foursquare.com"" rel=""nofollow"">Foursquare</a>","scnr",0,FALSE,FALSE,"-122.66022837","45.52097394"
"20","#portland #PortlandSmallBusinessNetwork #PSBN #oregon #networkingevent #networking #pdxevent #pdx @‚Ä¶ https://t.co/etbaJ8afFb",FALSE,0,NA,2015-05-03 22:08:46,FALSE,NA,"594986984638173185",NA,"<a href=""http://instagram.com"" rel=""nofollow"">Instagram</a>","lilypdx",0,FALSE,FALSE,"-122.682","45.52"
"21","#Brunching It's what you do in #portland #oregon Artistic candid photo credit goes to‚Ä¶ https://t.co/vumMChg5vv",FALSE,0,NA,2015-05-03 22:05:53,FALSE,NA,"594986260961308672",NA,"<a href=""http://instagram.com"" rel=""nofollow"">Instagram</a>","mattralston",0,FALSE,FALSE,"-122.649345","45.474922"
"22","I'm at Portland Main Post Office - @oigusps in Portland, OR https://t.co/p3201xVWua",FALSE,0,NA,2015-05-03 21:58:59,FALSE,NA,"594984526218207232",NA,"<a href=""http://foursquare.com"" rel=""nofollow"">Foursquare</a>","scnr",0,FALSE,FALSE,"-122.67858109","45.52733415"
"23","My A-1 day 1 Ì†ΩÌ∏úÌ†ΩÌ±Ø @ Portland Saturday Market https://t.co/qj46Q0Pa8W",FALSE,0,NA,2015-05-03 21:44:54,FALSE,NA,"594980979078475776",NA,"<a href=""http://instagram.com"" rel=""nofollow"">Instagram</a>","sydneymaurer",0,FALSE,FALSE,"-122.67067342","45.52252551"
"24","Hot Seller: ""The Lion"" @ Gerding Theater at the Armory - Ellyn Bye Studio (Portland, OR) http://t.co/QebpsdFz4m",FALSE,0,NA,2015-05-03 21:40:51,FALSE,NA,"594979962244980736",NA,"<a href=""http://www.goldstar.com"" rel=""nofollow"">Goldstar</a>","GoldstarTampa",0,FALSE,FALSE,"-122.68215","45.523885"
"25","Hot Seller: ""The Lion"" @ Gerding Theater at the Armory - Ellyn Bye Studio (Portland, OR) http://t.co/2Glx2bDsBH",FALSE,0,NA,2015-05-03 21:40:02,FALSE,NA,"594979755675492352",NA,"<a href=""http://www.goldstar.com"" rel=""nofollow"">Goldstar</a>","GoldstarSTL",0,FALSE,FALSE,"-122.68215","45.523885"
"26","Hot Seller: ""The Lion"" @ Gerding Theater at the Armory - Ellyn Bye Studio (Portland, OR) http://t.co/gtNnEc8ZKs",FALSE,0,NA,2015-05-03 21:39:01,FALSE,NA,"594979498644393984",NA,"<a href=""http://www.goldstar.com"" rel=""nofollow"">Goldstar</a>","GoldstarSA",0,FALSE,FALSE,"-122.68215","45.523885"
"27","Hot Seller: ""The Lion"" @ Gerding Theater at the Armory - Ellyn Bye Studio (Portland, OR) http://t.co/Ji0qZkq9Pa",FALSE,0,NA,2015-05-03 21:38:06,FALSE,NA,"594979270566531072",NA,"<a href=""http://www.goldstar.com"" rel=""nofollow"">Goldstar</a>","GoldstarPDX",0,FALSE,FALSE,"-122.68215","45.523885"
"28","Hot Seller: ""The Lion"" @ Gerding Theater at the Armory - Ellyn Bye Studio (Portland, OR) http://t.co/tUFnGesRmf",FALSE,0,NA,2015-05-03 21:37:35,FALSE,NA,"594979140513697793",NA,"<a href=""http://www.goldstar.com"" rel=""nofollow"">Goldstar</a>","GoldstarCLE",0,FALSE,FALSE,"-122.68215","45.523885"
"29","Hot Seller: ""The Lion"" @ Gerding Theater at the Armory - Ellyn Bye Studio (Portland, OR) http://t.co/54LODsuWvD",FALSE,0,NA,2015-05-03 21:36:38,FALSE,NA,"594978901706874880",NA,"<a href=""http://www.goldstar.com"" rel=""nofollow"">Goldstar</a>","GoldstarChar",0,FALSE,FALSE,"-122.68215","45.523885"
"30","Pear &amp; ginger chai (@ Dapper &amp; Wise - Division in Portland, OR) https://t.co/WLgxRRa0Nr",FALSE,0,NA,2015-05-03 21:33:55,FALSE,NA,"594978213958389760",NA,"<a href=""http://foursquare.com"" rel=""nofollow"">Foursquare</a>","lydialauer",0,FALSE,FALSE,"-122.632741","45.504828"
"31","Alan Hsu, May Liu, and Micah Herring in Portland, Oregon @ Portland Waterfront https://t.co/mUu6ber6w2",FALSE,0,NA,2015-05-03 21:21:48,FALSE,NA,"594975165307555840",NA,"<a href=""http://instagram.com"" rel=""nofollow"">Instagram</a>","CHerringConsult",0,FALSE,FALSE,"-122.67284106","45.5175795"
"32","A little Portland history. #inpdx @ Director Park - Portland Parks &amp; Recreation https://t.co/US9DNsbc0V",FALSE,0,NA,2015-05-03 21:20:03,FALSE,NA,"594974725010563072",NA,"<a href=""http://instagram.com"" rel=""nofollow"">Instagram</a>","SusanneOrton1",0,FALSE,FALSE,"-122.68113569","45.51864713"
"33","Home sweet home @ Portland Oregon Old Town https://t.co/F7BO15oMJH",FALSE,3,NA,2015-05-03 21:17:48,FALSE,NA,"594974159899353088",NA,"<a href=""http://instagram.com"" rel=""nofollow"">Instagram</a>","AMW1989",0,FALSE,FALSE,"-122.67035","45.52333"
"34","Oracle #Sales #Job: Applications Sales Representative IV- Pharmaceutical Clinical &amp;... (#Portland, OR) http://t.co/Ue5Xa9QtKo #Jobs",FALSE,0,NA,2015-05-03 21:13:47,FALSE,NA,"594973148115664896",NA,"<a href=""http://www.tweetmyjobs.com"" rel=""nofollow"">TweetMyJOBS</a>","JobsAtOracle",0,FALSE,FALSE,"-122.6762071","45.5234515"
"35","Shanghai'd IPA at a haunted pizza place right above Portland's Shanghai Tunnels. #ipa #oldtownpizza‚Ä¶ https://t.co/1xbCIAfQgu",FALSE,0,NA,2015-05-03 21:05:03,FALSE,NA,"594970949818163202",NA,"<a href=""http://instagram.com"" rel=""nofollow"">Instagram</a>","MoodySunflower",0,FALSE,FALSE,"-122.67301034","45.52453448"
"36","""Nobody fucks with the Jesus"" #biglebowski #biglegrowlski #portland @ The Big Legrowlski https://t.co/GozlVq157x",FALSE,0,NA,2015-05-03 20:58:16,FALSE,NA,"594969244900728832",NA,"<a href=""http://instagram.com"" rel=""nofollow"">Instagram</a>","Ameenah_58",0,FALSE,FALSE,"-122.679365","45.523591"
"37","hello Portland http://t.co/BNnHxz3qKf",FALSE,0,NA,2015-05-03 20:55:24,FALSE,NA,"594968521223704576",NA,"<a href=""http://twitter.com/download/android"" rel=""nofollow"">Twitter for Android</a>","xiaskris",0,FALSE,FALSE,"-122.6798006","45.5173812"
"38","Mmmm, lunch (@ Tabor Bread in Portland, OR) https://t.co/7D1ZpVhX3m",FALSE,0,NA,2015-05-03 20:50:53,FALSE,NA,"594967386513678336",NA,"<a href=""http://foursquare.com"" rel=""nofollow"">Foursquare</a>","littleREDelf",0,FALSE,FALSE,"-122.61058628","45.51207502"
"39","Vegan Brussels sprout mac and cheese. 7/7 pickles. This is a must. #PDX #Portland #pdxeats #pdxfood‚Ä¶ https://t.co/RZ0NOx7hRI",FALSE,0,NA,2015-05-03 20:44:31,FALSE,NA,"594965783144456193",NA,"<a href=""http://instagram.com"" rel=""nofollow"">Instagram</a>","Eridax700",0,FALSE,FALSE,"-122.60794298","45.52288483"
"40","I'm at Goodwill - Lake Oswego in Portland, OR w/ @broadwayjason https://t.co/ng1rK7e3j1",FALSE,0,NA,2015-05-03 20:42:14,FALSE,NA,"594965207463628800",NA,"<a href=""http://foursquare.com"" rel=""nofollow"">Foursquare</a>","budacub",0,FALSE,FALSE,"-122.66429275","45.41287423"
"41","RT @TotalTrafficPOR: Accident, right lane blocked in #Portland on I-84 EB at Grand Ave, stop and go traffic back to I-5, delay of 1 min #PD‚Ä¶",FALSE,0,NA,2015-05-03 20:36:54,FALSE,NA,"594963866079121408",NA,"<a href=""http://www.TheHighwayMonitor.com"" rel=""nofollow"">(OR) I-5 Updates</a>","ORI5thm",1,TRUE,FALSE,NA,NA
"42","RT @TotalTrafficPOR: Accident in #Portland on I-84 WB at Grand Ave, stop and go traffic back to 33rd Ave, delay of 4 mins #PDXtraffic http:‚Ä¶",FALSE,0,NA,2015-05-03 20:36:54,FALSE,NA,"594963865416368128",NA,"<a href=""http://www.TheHighwayMonitor.com"" rel=""nofollow"">(OR) I-5 Updates</a>","ORI5thm",1,TRUE,FALSE,NA,NA
"43","We came, we saw, we drank @ BrewCycle Portland https://t.co/x05cdU6ayY",FALSE,0,NA,2015-05-03 20:32:31,FALSE,NA,"594962765527314434",NA,"<a href=""http://instagram.com"" rel=""nofollow"">Instagram</a>","Syrah1551",0,FALSE,FALSE,"-122.685677","45.52597"
"44","everyone loves a photo booth Ì†ΩÌ≥∑Ì†ΩÌ±åÌ†ºÌøº @ Holocene Portland https://t.co/5xC8zpEhxr",FALSE,1,NA,2015-05-03 20:27:47,FALSE,NA,"594961573124374529",NA,"<a href=""http://instagram.com"" rel=""nofollow"">Instagram</a>","kaylaavictoria",0,FALSE,FALSE,"-122.65549969","45.51733046"
"45","Purple Haze (@ Barley Mill Pub - @captainneon in Portland, OR) https://t.co/EzCI1hk18D",FALSE,0,NA,2015-05-03 20:23:02,FALSE,NA,"594960378595045377",NA,"<a href=""http://foursquare.com"" rel=""nofollow"">Foursquare</a>","nobsong",0,FALSE,FALSE,"-122.64880124","45.51235898"
"46","I'm at Oaks Amusement Park in Portland, OR https://t.co/yTEwjxm8B0",FALSE,0,NA,2015-05-03 20:14:56,FALSE,NA,"594958339085344769",NA,"<a href=""http://foursquare.com"" rel=""nofollow"">Foursquare</a>","hazelsenol",0,FALSE,FALSE,"-122.66228265","45.47223872"
"47","Man Portland is fun as fug",FALSE,2,NA,2015-05-03 20:13:10,FALSE,NA,"594957895839707136",NA,"<a href=""http://twitter.com/download/iphone"" rel=""nofollow"">Twitter for iPhone</a>","YOUNGBUFFALO",0,FALSE,FALSE,"-122.62634839","45.51205308"
"48","Sunny and warm in Portland,Or. http://t.co/Lhy6y1KMIL",FALSE,0,NA,2015-05-03 20:03:34,FALSE,NA,"594955479261949952",NA,"<a href=""http://twitter.com/download/android"" rel=""nofollow"">Twitter for Android</a>","AnnBaldwinMay",0,FALSE,FALSE,"-122.6816228","45.5234052"
"49","some of my favorite gals Ì†ΩÌ∏ç #bootybasement @ Holocene Portland https://t.co/HHQTiaFDgS",FALSE,0,NA,2015-05-03 19:59:53,FALSE,NA,"594954551163248641",NA,"<a href=""http://instagram.com"" rel=""nofollow"">Instagram</a>","kaylaavictoria",0,FALSE,FALSE,"-122.65549969","45.51733046"
"50","Great spot right by the fountain, and great weather today at the Portland Saturday Market. Perfect‚Ä¶ https://t.co/DeQUyhpL7G",FALSE,0,NA,2015-05-03 19:50:38,FALSE,NA,"594952224117252096",NA,"<a href=""http://instagram.com"" rel=""nofollow"">Instagram</a>","unusualcards",0,FALSE,FALSE,"-122.67067342","45.52252551"
"51","#portland #PortlandSmallBusinessNetwork #PSBN #oregon #networkingevent #networking #pdxevent #pdx @‚Ä¶ https://t.co/0l2VBK8jRB",FALSE,0,NA,2015-05-03 19:41:38,FALSE,NA,"594949959927123968",NA,"<a href=""http://instagram.com"" rel=""nofollow"">Instagram</a>","lilypdx",0,FALSE,FALSE,"-122.68229254","45.52471039"
"52","#portland #PortlandSmallBusinessNetwork #PSBN #oregon #networkingevent #networking #pdxevent #pdx @‚Ä¶ https://t.co/x8R9LfFc77",FALSE,0,NA,2015-05-03 19:40:07,FALSE,NA,"594949576756436992",NA,"<a href=""http://instagram.com"" rel=""nofollow"">Instagram</a>","lilypdx",0,FALSE,FALSE,"-122.67941174","45.51906124"
"53","#portland #PortlandSmallBusinessNetwork #PSBN #oregon #networkingevent #networking #pdxevent #pdx @‚Ä¶ https://t.co/ADb5y4jBFV",FALSE,0,NA,2015-05-03 19:38:22,FALSE,NA,"594949135742144513",NA,"<a href=""http://instagram.com"" rel=""nofollow"">Instagram</a>","lilypdx",0,FALSE,FALSE,"-122.68229254","45.52471039"
"54","#portland #PortlandSmallBusinessNetwork #PSBN #oregon #networkingevent #networking #pdxevent #pdx @‚Ä¶ https://t.co/WhehPMRkc7",FALSE,0,NA,2015-05-03 19:36:04,FALSE,NA,"594948556236152833",NA,"<a href=""http://instagram.com"" rel=""nofollow"">Instagram</a>","lilypdx",0,FALSE,FALSE,"-122.67941174","45.51906124"
"55","#portland #PortlandSmallBusinessNetwork #PSBN #oregon #networkingevent #networking #pdxevent #pdx @‚Ä¶ https://t.co/XOVZtatsQ4",FALSE,0,NA,2015-05-03 19:34:32,FALSE,NA,"594948172990042112",NA,"<a href=""http://instagram.com"" rel=""nofollow"">Instagram</a>","lilypdx",0,FALSE,FALSE,"-122.67714385","45.52173854"
"56","#NIKE Ì†ΩÌπå @ Nike Portland https://t.co/KKburLFQVt",FALSE,0,NA,2015-05-03 19:34:08,FALSE,NA,"594948069713682432",NA,"<a href=""http://instagram.com"" rel=""nofollow"">Instagram</a>","ArielVivian",0,FALSE,FALSE,"-122.677139","45.518917"
"57","My choice #portland #voodoo #yum @ Voodoo Doughnut https://t.co/EC4GEjZZfl",FALSE,0,NA,2015-05-03 19:32:50,FALSE,NA,"594947745993068544",NA,"<a href=""http://instagram.com"" rel=""nofollow"">Instagram</a>","vanessaontheweb",0,FALSE,FALSE,"-122.6503655","45.52450534"
"58","Good things come in pink boxes! #portland #voodoo @ Voodoo Doughnut https://t.co/ACTw9n18ci",FALSE,0,NA,2015-05-03 19:30:52,FALSE,NA,"594947249903431680",NA,"<a href=""http://instagram.com"" rel=""nofollow"">Instagram</a>","vanessaontheweb",0,FALSE,FALSE,"-122.6503655","45.52450534"
"59","Voodoo Doughnuts! #donuts Omg..so sweet. #portland @ Voodoo Doughnut https://t.co/Lq5sGU9uEU",FALSE,2,NA,2015-05-03 19:27:23,FALSE,NA,"594946371968446464",NA,"<a href=""http://instagram.com"" rel=""nofollow"">Instagram</a>","vanessaontheweb",0,FALSE,FALSE,"-122.6503655","45.52450534"
"60","Click. Click click. Clickclickclickclick. #typewriter #vintage #paper #art #portland #pdx @ Oblation‚Ä¶ https://t.co/Bx67CoLp2z",FALSE,1,NA,2015-05-03 19:19:51,FALSE,NA,"594944477933993984",NA,"<a href=""http://instagram.com"" rel=""nofollow"">Instagram</a>","RendItItsYours",0,FALSE,FALSE,"-122.6829605","45.5267982"
"61","Portland. Brunch. Sunshine. Yes. @ Veritable Quandary https://t.co/jwBxxZOA6k",FALSE,4,NA,2015-05-03 19:09:06,FALSE,NA,"594941770783399936",NA,"<a href=""http://instagram.com"" rel=""nofollow"">Instagram</a>","rmhanley",0,FALSE,FALSE,"-122.675278","45.514037"
"62","Bathroom advice. Guess neither is gonna happen. #grendels #portland #graffitti #advice @ Grendel's‚Ä¶ https://t.co/4fvtKgVanT",FALSE,0,NA,2015-05-03 18:52:45,FALSE,NA,"594937657106505729",NA,"<a href=""http://instagram.com"" rel=""nofollow"">Instagram</a>","RandyRas01",0,FALSE,FALSE,"-122.65746333","45.52302167"
"63","RT @itsmikebivins: Riot cops standing firm, but so are protesters at base of Burnside bridge. @hillarylake @therearguard #Portland http://t‚Ä¶",FALSE,0,NA,2015-05-03 18:51:44,FALSE,NA,"594937402398912513",NA,"<a href=""http://twitter.com/#!/download/ipad"" rel=""nofollow"">Twitter for iPad</a>","ryanjharmon",49,TRUE,FALSE,NA,NA
"64","RT @itsmikebivins: #Anonymous person tackled by cops. @YourAnonNews @Chi_Ship @therearguard #Mayday #Portland #FreddieGray http://t.co/dg57‚Ä¶",FALSE,0,NA,2015-05-03 18:41:34,FALSE,NA,"594934843886075904",NA,"<a href=""http://twitter.com/download/iphone"" rel=""nofollow"">Twitter for iPhone</a>","braingarbage",57,TRUE,FALSE,NA,NA
"65","I'm at Elephants On Corbett - @elephantsdeli in Portland, OR https://t.co/lzQwcxTxDV",FALSE,0,NA,2015-05-03 18:40:29,FALSE,NA,"594934569977159681",NA,"<a href=""http://foursquare.com"" rel=""nofollow"">Foursquare</a>","MarisaPatrice",0,FALSE,FALSE,"-122.67695168","45.48530917"
"66","I'm at Cha! Cha! Cha! in Portland, OR https://t.co/bckn0gC7w2",FALSE,1,NA,2015-05-03 18:32:53,FALSE,NA,"594932659387760640",NA,"<a href=""http://foursquare.com"" rel=""nofollow"">Foursquare</a>","hazelsenol",0,FALSE,FALSE,"-122.64982224","45.47382"
"67","Tastes some fat samplers Ì†ΩÌ∏∂ #fatheadsbrewery @ Fat Head's Portland https://t.co/IJfdoYBoTP",FALSE,0,NA,2015-05-03 18:26:08,FALSE,NA,"594930958748491776",NA,"<a href=""http://instagram.com"" rel=""nofollow"">Instagram</a>","Ameenah_58",0,FALSE,FALSE,"-122.684692","45.523979"
"68","Tonight in #Portland: don't miss RESONANCE: a Broken Beat showcase #RCU #2step #garage 7-11pm @ Fifth‚Ä¶ https://t.co/3jmjMxAJVr",FALSE,0,NA,2015-05-03 18:09:41,FALSE,NA,"594926820694355969",NA,"<a href=""http://instagram.com"" rel=""nofollow"">Instagram</a>","candynick",0,FALSE,FALSE,"-122.6755246","45.52431858"
"69","Behinds the scenes. Snapping photos for #Ramblist in a chill spot I found overlooking the Portland.‚Ä¶ https://t.co/bBtbiaxiIE",FALSE,0,NA,2015-05-03 18:08:50,FALSE,NA,"594926603584569345",NA,"<a href=""http://instagram.com"" rel=""nofollow"">Instagram</a>","valeriefidan",0,FALSE,FALSE,"-122.5925937","45.5128968"
"70","I'm at @TheBelmontGoats in Portland, OR https://t.co/07EA3TvxpP",FALSE,0,NA,2015-05-03 17:48:35,FALSE,NA,"594921508704751616",NA,"<a href=""http://foursquare.com"" rel=""nofollow"">Foursquare</a>","theonetruebix",0,FALSE,FALSE,"-122.56973147","45.48071976"
"71","Consulting Sales Rep 4 - Oracle: (#Portland, OR) http://t.co/F7dd7q6mua #Sales #Job #Jobs #Hiring",FALSE,1,NA,2015-05-03 17:46:57,FALSE,NA,"594921096119365633",NA,"<a href=""http://www.tweetmyjobs.com"" rel=""nofollow"">TweetMyJOBS</a>","JobsAtOracle",0,FALSE,FALSE,"-122.6762071","45.5234515"
"72","It's beautiful outside in #Portland so #Boo is wearing his favorite T-shirt #SurferBoy #pdx‚Ä¶ https://t.co/W8rVJIH7uf",FALSE,0,NA,2015-05-03 17:37:21,FALSE,NA,"594918683748769792",NA,"<a href=""http://instagram.com"" rel=""nofollow"">Instagram</a>","MoodsofFlorence",0,FALSE,FALSE,"-122.67948706","45.51982003"
"73","RT @itsmikebivins: HOLY CRAP STUN GRENADES IN #portland. @therearguard http://t.co/tJvz2sDliM",FALSE,0,NA,2015-05-03 17:25:28,FALSE,NA,"594915690215149568",NA,"<a href=""http://twitter.com"" rel=""nofollow"">Twitter Web Client</a>","braingarbage",36,TRUE,FALSE,NA,NA
"74","Oracle: Sales Snr Director (#Portland, OR) http://t.co/5w1MIfHBK9 #Sales #Job #Jobs #Hiring",FALSE,0,NA,2015-05-03 17:22:52,FALSE,NA,"594915037031993345",NA,"<a href=""http://www.tweetmyjobs.com"" rel=""nofollow"">TweetMyJOBS</a>","JobsAtOracle",0,FALSE,FALSE,"-122.6762071","45.5234515"
"75","RT @itsmikebivins: This guy apparently got hit in the face by @PortlandPolice with a flash grenade during #MayDayPDX. #MayDay #Portland htt‚Ä¶",FALSE,0,NA,2015-05-03 17:12:44,FALSE,NA,"594912488191234048",NA,"<a href=""http://twitter.com"" rel=""nofollow"">Twitter Web Client</a>","braingarbage",3,TRUE,FALSE,NA,NA
"76","RT @itsmikebivins: This guy apparently got hit in the face by @PortlandPolice with a flash grenade during #MayDayPDX. #MayDay #Portland htt‚Ä¶",FALSE,0,NA,2015-05-03 16:18:33,FALSE,NA,"594898850764062720",NA,"<a href=""http://twitter.com"" rel=""nofollow"">Twitter Web Client</a>","OccupyFR",3,TRUE,FALSE,NA,NA
"77","This guy apparently got hit in the face by @PortlandPolice with a flash grenade during #MayDayPDX. #MayDay #Portland http://t.co/cWZWiIA4ty",FALSE,1,NA,2015-05-03 16:17:48,FALSE,NA,"594898663723311105",NA,"<a href=""http://twitter.com/download/iphone"" rel=""nofollow"">Twitter for iPhone</a>","itsmikebivins",3,FALSE,FALSE,"-122.661861","45.52420448"
"78","RT @TotalTrafficPOR: Bridge closed in #Portland on Morrison Brg Both EB/WB at Morrison Brg #PDXtraffic http://t.co/cq6BNINZFe",FALSE,0,NA,2015-05-03 16:09:19,FALSE,NA,"594896529753780224",NA,"<a href=""http://www.TheHighwayMonitor.com"" rel=""nofollow"">(OR) I-5 Updates</a>","ORI5thm",2,TRUE,FALSE,NA,NA
"79","Moon over Portland. @ Providence Park https://t.co/f7Tly87TZy",FALSE,0,NA,2015-05-03 16:00:20,FALSE,NA,"594894268608675842",NA,"<a href=""http://instagram.com"" rel=""nofollow"">Instagram</a>","yuppieskum",0,FALSE,FALSE,"-122.69153467","45.52171976"
"80","RT @itsmikebivins: @TruthCastersTV we don't get to have too much fun in #Portland. Back in action Tuesday though for a #DontshootPDX demo. ‚Ä¶",FALSE,0,NA,2015-05-03 15:55:13,FALSE,NA,"594892979220844544",NA,"<a href=""http://twitter.com/download/android"" rel=""nofollow"">Twitter for Android</a>","TruthCastersTV",2,TRUE,FALSE,NA,NA
"81","#Portland, OR #psychiatry #Job: Immediate Inpatient Opportunity for multiple Psychiatrists in Portland,... at http://t.co/S9dVgueZZQ",FALSE,0,NA,2015-05-03 15:44:52,FALSE,NA,"594890376483221504",NA,"<a href=""http://tweetmyjobs.com"" rel=""nofollow"">SafeTweet by TweetMyJOBS</a>","AHPhysicianJobs",0,FALSE,FALSE,"-122.6762071","45.5234515"
"82","RT @itsmikebivins: @TruthCastersTV we don't get to have too much fun in #Portland. Back in action Tuesday though for a #DontshootPDX demo. ‚Ä¶",FALSE,0,NA,2015-05-03 15:44:31,FALSE,NA,"594890284716068864",NA,"<a href=""https://mobile.twitter.com"" rel=""nofollow"">Mobile Web (M5)</a>","Teressa_Raiford",2,TRUE,FALSE,NA,NA
"83","RT @itsmikebivins: @SaferOregonPAC I didn't see a chair thrown--but my editor with @therearguard did! @Chi_Ship #Maydaypdx #Mayday2015 #Fre‚Ä¶",FALSE,0,NA,2015-05-03 15:43:56,FALSE,NA,"594890138808758272",NA,"<a href=""http://twitter.com/download/iphone"" rel=""nofollow"">Twitter for iPhone</a>","Chi_Ship",1,TRUE,FALSE,NA,NA
"84","@TruthCastersTV we don't get to have too much fun in #Portland. Back in action Tuesday though for a #DontshootPDX demo. @Teressa_Raiford",FALSE,3,"TruthCastersTV",2015-05-03 15:41:10,FALSE,"594878427225673728","594889442478792704","2918876204","<a href=""http://twitter.com/download/iphone"" rel=""nofollow"">Twitter for iPhone</a>","itsmikebivins",2,FALSE,FALSE,"-122.661877","45.52417258"
"85","Sunday morning breakfast. With Karen (at @OfftheWaffle in Portland, OR) https://t.co/u9MxR0lokC",FALSE,0,NA,2015-05-03 15:30:00,FALSE,NA,"594886632404312064",NA,"<a href=""http://foursquare.com"" rel=""nofollow"">Foursquare</a>","jrkraus13",0,FALSE,FALSE,"-122.63963778","45.50349849"
"86","Soliant Health: Travel Pharmacist Job: Portland, OR (#PortlandOR, OR) http://t.co/xYom0VLRHg #Healthcare #Job #Jobs #Hiring #TweetMyJobs",FALSE,0,NA,2015-05-03 14:34:49,FALSE,NA,"594872747278270465",NA,"<a href=""http://tweetmyjobs.com"" rel=""nofollow"">SafeTweet by TweetMyJOBS</a>","Soliant_Pharm",0,FALSE,FALSE,"-122.6762071","45.5234515"
"87","I'm at Starbucks in Portland, OR http://t.co/opCcxvSrtv",FALSE,1,NA,2015-05-03 14:20:16,FALSE,NA,"594869083717402625",NA,"<a href=""http://foursquare.com"" rel=""nofollow"">Foursquare</a>","sarahmorrigan",0,FALSE,FALSE,"-122.68392936","45.5093155"
"88","I'm at Broadway Residence Hall (PSU) - @portland_state in Portland, OR http://t.co/6IwGlAakRe",FALSE,0,NA,2015-05-03 14:19:24,FALSE,NA,"594868864246292481",NA,"<a href=""http://foursquare.com"" rel=""nofollow"">Foursquare</a>","sarahmorrigan",0,FALSE,FALSE,"-122.68439231","45.50952236"
"89","Richie? #streetart #tennenbaum #portland #VSCOcam @ Crystal Ballroom https://t.co/otOXGu3Yva",FALSE,0,NA,2015-05-03 14:02:47,FALSE,NA,"594864684060246016",NA,"<a href=""http://instagram.com"" rel=""nofollow"">Instagram</a>","joshduffus",0,FALSE,FALSE,"-122.68474576","45.52280514"
"90","Oracle: Applications Sales Representative IV (#Portland, OR) http://t.co/O7EWwr0gpx #Sales #Job #Jobs #Hiring",FALSE,0,NA,2015-05-03 13:53:08,FALSE,NA,"594862257378447360",NA,"<a href=""http://www.tweetmyjobs.com"" rel=""nofollow"">TweetMyJOBS</a>","JobsAtOracle",0,FALSE,FALSE,"-122.6762071","45.5234515"
"91","Now Hiring: Willamette Mkt  - Personal Banker - Eastport Plaza BC - Portland, OR | Bank of America: OR - P | http://t.co/fAHGFyLhnI #jobs",FALSE,0,NA,2015-05-03 13:42:13,FALSE,NA,"594859509417385984",NA,"<a href=""http://www.boxwoodtech.com"" rel=""nofollow"">CareerCenter</a>","lgbtcareerlink_",0,FALSE,FALSE,"-122.557005","45.48485"
"92","#Portland, OR #Sales #Job: Senior Sales Consultant at Oracle http://t.co/iR2WRVKE5U #Jobs #Hiring",FALSE,0,NA,2015-05-03 12:33:13,FALSE,NA,"594842144910643201",NA,"<a href=""http://www.tweetmyjobs.com"" rel=""nofollow"">TweetMyJOBS</a>","JobsAtOracle",0,FALSE,FALSE,"-122.6762071","45.5234515"
"93","#Healthcare #Job in #Portland, OR: Full time SLP Position in Portland, OR at Soliant Health http://t.co/Ej1Ku3HkFg #Jobs #Hiring",FALSE,1,NA,2015-05-03 12:32:34,FALSE,NA,"594841981974487040",NA,"<a href=""http://tweetmyjobs.com"" rel=""nofollow"">SafeTweet by TweetMyJOBS</a>","Soliant_Schools",0,FALSE,FALSE,"-122.6762071","45.5234515"
"94","#BusinessMgmt #Job alert: Consulting Project Technical Manager | Oracle | #Portland, OR http://t.co/azko4Ubt79 #Jobs #Hiring",FALSE,1,NA,2015-05-03 12:21:06,FALSE,NA,"594839096536600577",NA,"<a href=""http://www.tweetmyjobs.com"" rel=""nofollow"">TweetMyJOBS</a>","JobsAtOracle",0,FALSE,FALSE,"-122.6762071","45.5234515"
"95","Hey can u fake those pleasure noises and turn down that the xx lmao Portland",FALSE,7,NA,2015-05-03 11:58:32,FALSE,NA,"594833414265573376",NA,"<a href=""http://twitter.com/download/iphone"" rel=""nofollow"">Twitter for iPhone</a>","chazzzy420",0,FALSE,FALSE,"-122.63160417","45.48075925"
"96","This girl! @ Holocene Portland https://t.co/360uYYaJEo",FALSE,0,NA,2015-05-03 10:09:28,FALSE,NA,"594805966673174528",NA,"<a href=""http://instagram.com"" rel=""nofollow"">Instagram</a>","jennyleeward",0,FALSE,FALSE,"-122.65549969","45.51733046"
"97","#Sales #Job: Retail Cosmetics Sales - Beauty Advisor Clinique, Part Time: Portland,... (#Portland, OR) http://t.co/W0gYQQO0OB #makeup",FALSE,0,NA,2015-05-03 09:29:02,FALSE,NA,"594795791618674689",NA,"<a href=""http://tweetmyjobs.com"" rel=""nofollow"">SafeTweet by TweetMyJOBS</a>","macysbeautyJOBS",0,FALSE,FALSE,"-122.5722573","45.4365909"
"98","""ÿ¥ŸÅÿ™ ÿßŸÑŸÖÿ∑ÿ± ŸÉŸäŸÅ ÿ™ŸÅÿ±ÿ≠ ÿ®Ÿá ÿßŸÑŸÜÿßÿ≥
ÿßŸÜÿ™ ŸÖÿ∑ÿ± ÿπŸÖÿ±Ÿä ŸàŸÅÿ±ÿ≠ÿ© ÿ≥ŸÜŸäŸÜŸä"" @ Portland Waterfront https://t.co/rKifZVpn3d",FALSE,0,NA,2015-05-03 09:03:52,FALSE,NA,"594789459998199808",NA,"<a href=""http://instagram.com"" rel=""nofollow"">Instagram</a>","ABnYAlTheyab",0,FALSE,FALSE,"-122.67284106","45.5175795"
"99","Boys night out! #mybrothers #fun #portland #fifthavenuelounge #champagne #club #friends #downtownpdx‚Ä¶ https://t.co/7QCFfP5mGb",FALSE,1,NA,2015-05-03 07:43:51,FALSE,NA,"594769322049953792",NA,"<a href=""http://instagram.com"" rel=""nofollow"">Instagram</a>","RayHeker",0,FALSE,FALSE,"-122.6755246","45.52431858"
"100","RT @TotalTrafficPOR: Accident in #Multnomah on SE Holgate Blvd Both EB/WB at Hwy 213 #PDXtraffic http://t.co/cq6BNINZFe",FALSE,0,NA,2015-05-03 07:22:19,FALSE,NA,"594763903059517440",NA,"<a href=""http://www.TheHighwayMonitor.com"" rel=""nofollow"">(OR) I-5 Updates</a>","ORI5thm",2,TRUE,FALSE,NA,NA
"101","So Portland #jello @ Star Bar https://t.co/2y8HV0t8P9",FALSE,1,NA,2015-05-03 07:21:56,FALSE,NA,"594763806984765440",NA,"<a href=""http://instagram.com"" rel=""nofollow"">Instagram</a>","aireeland",0,FALSE,FALSE,"-122.659027","45.517471"
"102","Rose-glowÌ†ºÌºπ#Portland #CincoDeMayo @ Tom McCall Waterfront Park https://t.co/86WvxtLg4X",FALSE,0,NA,2015-05-03 07:09:35,FALSE,NA,"594760697659142144",NA,"<a href=""http://instagram.com"" rel=""nofollow"">Instagram</a>","KellyPattiperra",0,FALSE,FALSE,"-122.6726","45.516"
"103","I'm at @CCSlaughters in Portland, OR https://t.co/OSuqXvG4il",FALSE,0,NA,2015-05-03 06:43:41,FALSE,NA,"594754181493293056",NA,"<a href=""http://foursquare.com"" rel=""nofollow"">Foursquare</a>","maravon",0,FALSE,FALSE,"-122.67294288","45.52455896"
"104","#voodoodoughnut#doughnut#sweet#total#24dollar#famous#popular#yummy#portland#midciclebrake#may#2nd#0502‚Ä¶ https://t.co/iU3VBlwRG6",FALSE,1,NA,2015-05-03 06:04:20,FALSE,NA,"594744277093191681",NA,"<a href=""http://instagram.com"" rel=""nofollow"">Instagram</a>","otsugumi_1212",0,FALSE,FALSE,"-122.6735932","45.5226396"
"105","#portland#tax#free#notax#midciclebrake#brake#time#oregon#weekend#saturday##AUAP#CWU#friend#America @‚Ä¶ https://t.co/0EhaEE08Qb",FALSE,0,NA,2015-05-03 05:52:27,FALSE,NA,"594741289339457536",NA,"<a href=""http://instagram.com"" rel=""nofollow"">Instagram</a>","otsugumi_1212",0,FALSE,FALSE,"-122.682","45.52"
"106","I walked here to drink off that boxing (at @TanukiPdx in Portland, OR w/ @adoxograph) https://t.co/rUz8OAbiYL",FALSE,3,NA,2015-05-03 05:52:10,FALSE,NA,"594741217453281280",NA,"<a href=""http://foursquare.com"" rel=""nofollow"">Foursquare</a>","sarcasmosis",0,FALSE,FALSE,"-122.58082452","45.51928513"
"107","Got lit. Mad sake. Janis is still a saint. (at @TanukiPdx in Portland, OR) https://t.co/IKMVn9yELw",FALSE,2,NA,2015-05-03 05:39:09,FALSE,NA,"594737941034958848",NA,"<a href=""http://foursquare.com"" rel=""nofollow"">Foursquare</a>","philsince87",0,FALSE,FALSE,"-122.58082452","45.51928513"
"108","RT @itsmikebivins: HOLY CRAP STUN GRENADES IN #portland. @therearguard http://t.co/tJvz2sDliM",FALSE,0,NA,2015-05-03 05:37:57,FALSE,NA,"594737638491312128",NA,"<a href=""http://twitter.com"" rel=""nofollow"">Twitter Web Client</a>","OccupyLatrobe",36,TRUE,FALSE,NA,NA
"109","#girls
#Laura 
#Portland #PDX @ Ì†ºÌºÄÌ†ºÌºÄÌ†ºÌºÄÌ†ºÌºÄÌ†ΩÌ≤äÌ†ΩÌ≤äÌ†ΩÌ≤äÌ†ΩÌ≤äÌ†ΩÌ≤ä https://t.co/VJVGfBBvbB",FALSE,0,NA,2015-05-03 05:31:40,FALSE,NA,"594736058501341184",NA,"<a href=""http://instagram.com"" rel=""nofollow"">Instagram</a>","wilgowilco",0,FALSE,FALSE,"-122.65121942","45.49138203"
"110","I'm so fancy #margarita #marg #drinks #pdx #portland #cucumber @ Punch Bowl Social Food &amp; Drink PDX https://t.co/jpryW7CDbp",FALSE,1,NA,2015-05-03 05:30:03,FALSE,NA,"594735650609438720",NA,"<a href=""http://instagram.com"" rel=""nofollow"">Instagram</a>","hasart1205",0,FALSE,FALSE,"-122.676186","45.518078"
"111","#Portland #clipperswin  #voodoo #donuts #itsacelebrationbitches #voodoodonuts #Oregon‚Ä¶ https://t.co/EZLl37aBvT",FALSE,1,NA,2015-05-03 05:22:07,FALSE,NA,"594733656440188928",NA,"<a href=""http://instagram.com"" rel=""nofollow"">Instagram</a>","CharlieOconnel",0,FALSE,FALSE,"-122.65049","45.524544"
"112","this just happened 
#Portland #PDX @ Portland, OR..center of the Universe https://t.co/bAomxXFuX4",FALSE,0,NA,2015-05-03 05:16:59,FALSE,NA,"594732362161881089",NA,"<a href=""http://instagram.com"" rel=""nofollow"">Instagram</a>","wilgowilco",0,FALSE,FALSE,"-122.61748667","45.51196333"
"113","Cinco de Mayo festivalÌ†ΩÌ≤Ä @ Portland Waterfront https://t.co/Tez911lU8P",FALSE,0,NA,2015-05-03 04:56:07,FALSE,NA,"594727110721277952",NA,"<a href=""http://instagram.com"" rel=""nofollow"">Instagram</a>","Ferruzca13",0,FALSE,FALSE,"-122.67284106","45.5175795"
"114","RT @TotalTrafficPOR: Accident in #Portland on SE 104th Ave Both NB/SB at SE Mt Scott Blvd #PDXtraffic http://t.co/cq6BNINZFe",FALSE,0,NA,2015-05-03 04:48:10,FALSE,NA,"594725111070076930",NA,"<a href=""http://www.TheHighwayMonitor.com"" rel=""nofollow"">(OR) I-5 Updates</a>","ORI5thm",2,TRUE,FALSE,NA,NA
"115","Getting our grub on waiting for our prom boy to be done (at @JoesBurgers in Portland, OR w/ @jessclydesdale) https://t.co/0lf8xB8hh8",FALSE,0,NA,2015-05-03 04:38:01,FALSE,NA,"594722557561044992",NA,"<a href=""http://foursquare.com"" rel=""nofollow"">Foursquare</a>","butchclydesdale",0,FALSE,FALSE,"-122.68324739","45.50968625"
"116","Pool post #avengers #tonystark #robertdownyjr #bagdad #backstage #portland @ Backstage Bar https://t.co/baoi0tJObA",FALSE,1,NA,2015-05-03 04:37:31,FALSE,NA,"594722429622190080",NA,"<a href=""http://instagram.com"" rel=""nofollow"">Instagram</a>","artistic_amanda",0,FALSE,FALSE,"-122.62550259","45.51156282"
"117","I'm at Pioneer Place in Portland, OR https://t.co/G2LWmTkjnK",FALSE,0,NA,2015-05-03 04:34:13,FALSE,NA,"594721598877343744",NA,"<a href=""http://foursquare.com"" rel=""nofollow"">Foursquare</a>","UrBroMohammed",0,FALSE,FALSE,"-122.67694793","45.51835867"
"118","17th year of doing artwork for Feral Cat Coalition of Oregon. @ Portland Art Museum https://t.co/hKUP6peHum",FALSE,1,NA,2015-05-03 04:03:37,FALSE,NA,"594713899045367808",NA,"<a href=""http://instagram.com"" rel=""nofollow"">Instagram</a>","EttaWFoster",0,FALSE,FALSE,"-122.683556","45.516247"
"119","Brothers and sister. #friends #family #football #ptfc #rctid #pdx #portland @ Providence Park https://t.co/r9k2OhuDy1",FALSE,0,NA,2015-05-03 03:43:33,FALSE,NA,"594708850198052864",NA,"<a href=""http://instagram.com"" rel=""nofollow"">Instagram</a>","RendItItsYours",0,FALSE,FALSE,"-122.69153467","45.52171976"
"120","I'm at Star Theater for Covenant, Labyrnth, Alter Der Ruine and Cervello Elettronico in Portland, OR https://t.co/Nq1k82r3Vs",FALSE,0,NA,2015-05-03 03:41:40,FALSE,NA,"594708374090027010",NA,"<a href=""http://foursquare.com"" rel=""nofollow"">Foursquare</a>","PhotoChickSLC",0,FALSE,FALSE,"-122.67658899","45.52338542"
"121","I'm at Fogo de Ch√£o - @fogorestaurants in Portland, OR https://t.co/2OicIBhiEO",FALSE,0,NA,2015-05-03 03:40:16,FALSE,NA,"594708021818843136",NA,"<a href=""http://foursquare.com"" rel=""nofollow"">Foursquare</a>","CLoudNYNE",0,FALSE,FALSE,"-122.67956684","45.51713395"
"122","Enjoying another night at the @woodsmantavern in Portland and celebrating whoever won today at the‚Ä¶ https://t.co/xxJotiPluB",FALSE,1,NA,2015-05-03 03:34:12,FALSE,NA,"594706495008190464",NA,"<a href=""http://instagram.com"" rel=""nofollow"">Instagram</a>","timmeaney",0,FALSE,FALSE,"-122.61536613","45.5054096"
"123","Pac v Mayweathered with team @NikeTraining (@ Buffalo Wild Wings - @bwwings in Portland, OR) https://t.co/nFzY7MPtT4",FALSE,0,NA,2015-05-03 03:32:41,FALSE,NA,"594706113972539392",NA,"<a href=""http://foursquare.com"" rel=""nofollow"">Foursquare</a>","witz",0,FALSE,FALSE,"-122.676005","45.518497"
"124","A crowd of drinkers pulling up in a Pedalounge blasting club tunes is top five most Portland things ever",FALSE,0,NA,2015-05-03 03:32:30,FALSE,NA,"594706067289804800",NA,"<a href=""http://mvilla.it/fenix"" rel=""nofollow"">Fenix for Android</a>","colinseiler",0,FALSE,FALSE,"-122.6569344","45.5162514"
"125","There‚Äôs just something about Portland.",FALSE,1,NA,2015-05-03 03:14:27,FALSE,NA,"594701526636998657",NA,"<a href=""http://tapbots.com/tweetbot"" rel=""nofollow"">Tweetbot for iŒüS</a>","AlishaYamanaka",0,FALSE,FALSE,"-122.68663297","45.52205946"
"126","#portland #protest #blacklivesmatter #livingwage #police #flashbang #grenade #photoofmylife‚Ä¶ https://t.co/PsEaY3bV29",FALSE,0,NA,2015-05-03 03:03:20,FALSE,NA,"594698730563084288",NA,"<a href=""http://instagram.com"" rel=""nofollow"">Instagram</a>","agmocha",0,FALSE,FALSE,"-122.67922331","45.51888429"
"127","Coolest Columbine I've ever seen. Thanks Portland yard. Anyone know what kind it is? @ North Tabor‚Ä¶ https://t.co/h4wLXWKDkr",FALSE,1,NA,2015-05-03 03:01:34,FALSE,NA,"594698285698445312",NA,"<a href=""http://instagram.com"" rel=""nofollow"">Instagram</a>","FarmerFrannyC",0,FALSE,FALSE,"-122.602266","45.526482"
"128","Yes I like ice in my Malbec. Loving my bench. #sunset #Montavilla #Portland #Oregon #PNW #wine @‚Ä¶ https://t.co/CdnuN5FadQ",FALSE,1,NA,2015-05-03 03:00:59,FALSE,NA,"594698136595144704",NA,"<a href=""http://instagram.com"" rel=""nofollow"">Instagram</a>","joshuaxhunter",0,FALSE,FALSE,"-122.58665359","45.52529542"
"129","today was greatÌ†ΩÌ≤ü | #VSCOcam @ Portland Saturday Market https://t.co/DhuQUpJq0Z",FALSE,1,NA,2015-05-03 02:59:26,FALSE,NA,"594697746780704768",NA,"<a href=""http://instagram.com"" rel=""nofollow"">Instagram</a>","mariahjaeyoung",0,FALSE,FALSE,"-122.67067342","45.52252551"
"130","#portlandnw #Oregon #portland #timbers #vs #Washington #Vancouver #whitecaps #fc #soccer #game‚Ä¶ https://t.co/qZz9qWFtuC",FALSE,0,NA,2015-05-03 02:54:20,FALSE,NA,"594696465328578560",NA,"<a href=""http://instagram.com"" rel=""nofollow"">Instagram</a>","alalii1",0,FALSE,FALSE,"-122.69153467","45.52171976"
"131","Gametime- Portland Timbers v. Vancouver Whitecaps @ Providence Park https://t.co/bZXP3Qb0qh",FALSE,0,NA,2015-05-03 02:46:24,FALSE,NA,"594694468466581504",NA,"<a href=""http://instagram.com"" rel=""nofollow"">Instagram</a>","yuppieskum",0,FALSE,FALSE,"-122.69153467","45.52171976"
"132","I'm at @BaskinRobbins in Portland, OR w/ @broadwayjason https://t.co/koVjQEtSDl",FALSE,0,NA,2015-05-03 02:45:20,FALSE,NA,"594694197703286785",NA,"<a href=""http://foursquare.com"" rel=""nofollow"">Foursquare</a>","budacub",0,FALSE,FALSE,"-122.57921577","45.444605"
"133","I'm at Jake's Famous Crawfish in Portland, OR https://t.co/XZ9wDnRKfC",FALSE,0,NA,2015-05-03 02:28:54,FALSE,NA,"594690064657076224",NA,"<a href=""http://foursquare.com"" rel=""nofollow"">Foursquare</a>","MrOrenco",0,FALSE,FALSE,"-122.68325043","45.522558"
"134","RT @akari_oozora: Portland, OR
17.6¬∞C | 63.7¬∞F
Humidity: 2%
Clear http://t.co/m2yemp0PtH",FALSE,0,NA,2015-05-03 02:22:07,FALSE,NA,"594688357428502528",NA,"<a href=""http://janetter.net/"" rel=""nofollow"">Janetter</a>","ProngsV",1,TRUE,FALSE,NA,NA
"135","RT @itsmikebivins: BREAKING: people peppersprayed on base of burnside bridge. #Portland #MayDayPDX",FALSE,0,NA,2015-05-03 02:20:27,FALSE,NA,"594687936957796353",NA,"<a href=""http://twitter.com/download/iphone"" rel=""nofollow"">Twitter for iPhone</a>","AngusLeeLaw",19,TRUE,FALSE,NA,NA
"136","I'm at Providence Park for @WhitecapsFC vs @TimbersFC in Portland, OR https://t.co/aN3xhAZW1F",FALSE,0,NA,2015-05-03 02:15:36,FALSE,NA,"594686714934894592",NA,"<a href=""http://foursquare.com"" rel=""nofollow"">Foursquare</a>","phabby_davis_jr",0,FALSE,FALSE,"-122.6917398","45.52155597"
"137","Recovering from the baby's 1st birthday #Portland style -- with best friends and beers. @‚Ä¶ https://t.co/VFaUykJu3k",FALSE,0,NA,2015-05-03 02:14:54,FALSE,NA,"594686540732825601",NA,"<a href=""http://instagram.com"" rel=""nofollow"">Instagram</a>","MeghanBrennan",0,FALSE,FALSE,"-122.63972222","45.47055556"
"138","Drinking in PDX. (at @RumClubPx in Portland, OR) https://t.co/OKmB2RxdSs",FALSE,0,NA,2015-05-03 02:13:33,FALSE,NA,"594686201434656768",NA,"<a href=""http://foursquare.com"" rel=""nofollow"">Foursquare</a>","MusicGroz",0,FALSE,FALSE,"-122.658055","45.51903169"
"139","Doing our part to keep portland weird #pdx @ Portland Saturday Market https://t.co/I5461Br2li",FALSE,1,NA,2015-05-03 02:06:01,FALSE,NA,"594684303176511489",NA,"<a href=""http://instagram.com"" rel=""nofollow"">Instagram</a>","jrob410",0,FALSE,FALSE,"-122.67067342","45.52252551"
"140","Do a little dance. #pearlprinting #pdx #pdxart #pnw #portland #portlandia #portlandart #art #artists‚Ä¶ https://t.co/SasA65LUBp",FALSE,1,NA,2015-05-03 02:03:26,FALSE,NA,"594683653961158656",NA,"<a href=""http://instagram.com"" rel=""nofollow"">Instagram</a>","PearlPrinting",0,FALSE,FALSE,"-122.681473","45.524551"
"141","I'm at Deschutes Brewery &amp; Public House - @deschutespdxpub in Portland, OR https://t.co/eGU24E9b3h",FALSE,0,NA,2015-05-03 02:01:40,FALSE,NA,"594683209566318593",NA,"<a href=""http://foursquare.com"" rel=""nofollow"">Foursquare</a>","weathertom",0,FALSE,FALSE,"-122.68194973","45.52454204"
"142","Soooo true! In good ole #Portland for supermodelsunlimitedmag finished shoot day number one now going‚Ä¶ https://t.co/o7MbbbzaHR",FALSE,0,NA,2015-05-03 01:59:50,FALSE,NA,"594682749652475904",NA,"<a href=""http://instagram.com"" rel=""nofollow"">Instagram</a>","brittanybrower",0,FALSE,FALSE,"-122.67282842","45.52258408"
"143","#ptfc #rctid #flag #football #portland #pdx @ Providence Park https://t.co/2bhhdykTHf",FALSE,0,NA,2015-05-03 01:58:13,FALSE,NA,"594682341961945088",NA,"<a href=""http://instagram.com"" rel=""nofollow"">Instagram</a>","RendItItsYours",0,FALSE,FALSE,"-122.69153467","45.52171976"
"144","Buzzz buzzzz (@ Bishops Barbershop - @bishopsbs in Portland, OR) https://t.co/azbr3USxSI",FALSE,0,NA,2015-05-03 01:54:50,FALSE,NA,"594681488593047552",NA,"<a href=""http://foursquare.com"" rel=""nofollow"">Foursquare</a>","maravon",0,FALSE,FALSE,"-122.62498","45.512001"
"145","Ole! (@ Taqueria Nueve (T9) in Portland, OR w/ @angela0716) https://t.co/8X8uBB73Mx",FALSE,0,NA,2015-05-03 01:37:03,FALSE,NA,"594677012796694531",NA,"<a href=""http://foursquare.com"" rel=""nofollow"">Foursquare</a>","McGRP01",0,FALSE,FALSE,"-122.657938","45.518847"
"146","Life's essentials: Great Heights &amp; my best friendÌ†ºÌºÉÌ†ΩÌ±≠#Portland #OHSU @ Oregon Health &amp; Science‚Ä¶ https://t.co/CAHpUklzvv",FALSE,1,NA,2015-05-03 01:30:41,FALSE,NA,"594675414171258881",NA,"<a href=""http://instagram.com"" rel=""nofollow"">Instagram</a>","long_alina",0,FALSE,FALSE,"-122.68554229","45.49932569"
"147","I'm at @SheBopTheshop in Portland, OR https://t.co/HPpyp0wc05",FALSE,1,NA,2015-05-03 01:29:40,FALSE,NA,"594675155403743233",NA,"<a href=""http://foursquare.com"" rel=""nofollow"">Foursquare</a>","maravon",0,FALSE,FALSE,"-122.63269007","45.50483166"
"148","Just posted a photo @ Portland Tower https://t.co/N8giByLyDt",FALSE,0,NA,2015-05-03 01:23:51,FALSE,NA,"594673690643664896",NA,"<a href=""http://instagram.com"" rel=""nofollow"">Instagram</a>","FionaYauLuu",0,FALSE,FALSE,"-122.693771","45.521217"
"149","RT @Fish_Doctor: Dinner at a gluten free brewpub - only in #PDX (@ Ground Breaker Brewing - @groundbrkrbrew in Portland, OR) https://t.co/w‚Ä¶",FALSE,0,NA,2015-05-03 01:23:08,FALSE,NA,"594673511676817409",NA,"<a href=""http://twitter.com/download/iphone"" rel=""nofollow"">Twitter for iPhone</a>","GroundBrkrBrew",1,TRUE,FALSE,NA,NA
"150","All by myself! But still with friends! (@ Providence Park for @WhitecapsFC vs @TimbersFC in Portland, OR) https://t.co/J9PLelpZRQ",FALSE,0,NA,2015-05-03 01:14:03,FALSE,NA,"594671226007748608",NA,"<a href=""http://foursquare.com"" rel=""nofollow"">Foursquare</a>","RyaVM",0,FALSE,FALSE,"-122.6917398","45.52155597"
"151","I'm at Hopworks Urban Brewery - @hopworksbrewery in Portland, OR https://t.co/iRrQ9fEya2",FALSE,0,NA,2015-05-03 01:13:13,FALSE,NA,"594671015566974977",NA,"<a href=""http://foursquare.com"" rel=""nofollow"">Foursquare</a>","fxgibbons",0,FALSE,FALSE,"-122.63490085","45.49687258"
"152","#RCTID (@ Providence Park for @WhitecapsFC vs @TimbersFC in Portland, OR) https://t.co/pJkwEI9EbM",FALSE,1,NA,2015-05-03 01:11:41,FALSE,NA,"594670630148124673",NA,"<a href=""http://foursquare.com"" rel=""nofollow"">Foursquare</a>","twd3pdx",0,FALSE,FALSE,"-122.6917398","45.52155597"
"153","Prost! (at @HairoftheDog Brewery &amp; Tasting Room in Portland, OR) https://t.co/BQtOEMJiLq",FALSE,0,NA,2015-05-03 01:10:31,FALSE,NA,"594670336186183680",NA,"<a href=""http://foursquare.com"" rel=""nofollow"">Foursquare</a>","calebhailey",0,FALSE,FALSE,"-122.66571416","45.51592703"
"154","Valeri's Club in the house. (@ Providence Park for @WhitecapsFC vs @TimbersFC in Portland, OR) https://t.co/YEP0djgZ3P",FALSE,1,NA,2015-05-03 01:05:57,FALSE,NA,"594669188171563008",NA,"<a href=""http://foursquare.com"" rel=""nofollow"">Foursquare</a>","mkurfis",0,FALSE,FALSE,"-122.6917398","45.52155597"
"155","Let's go Timbers!! (@ Providence Park for @WhitecapsFC vs @TimbersFC in Portland, OR) https://t.co/fdTGJ5al6S",FALSE,0,NA,2015-05-03 01:02:40,FALSE,NA,"594668363487518720",NA,"<a href=""http://foursquare.com"" rel=""nofollow"">Foursquare</a>","gregmcgreevey",0,FALSE,FALSE,"-122.6917398","45.52155597"
"156","Dinner at a gluten free brewpub - only in #PDX (@ Ground Breaker Brewing - @groundbrkrbrew in Portland, OR) https://t.co/wKLsgW9B3f",FALSE,8,NA,2015-05-03 00:59:38,FALSE,NA,"594667596470996992",NA,"<a href=""http://foursquare.com"" rel=""nofollow"">Foursquare</a>","Fish_Doctor",1,FALSE,FALSE,"-122.65859351","45.50807393"
"157","RT @stoffee: It's Party town here!! (at @PortlandMercado in Portland, OR) https://t.co/gzXqOBNanw",FALSE,0,NA,2015-05-03 00:57:22,FALSE,NA,"594667028432060416",NA,"<a href=""http://twitter.com/download/iphone"" rel=""nofollow"">Twitter for iPhone</a>","PortlandMercado",1,TRUE,FALSE,NA,NA
"158","I'm at House Of Vintage in Portland, OR https://t.co/92TjeutDll",FALSE,0,NA,2015-05-03 00:54:55,FALSE,NA,"594666411559133184",NA,"<a href=""http://foursquare.com"" rel=""nofollow"">Foursquare</a>","maravon",0,FALSE,FALSE,"-122.63067126","45.51230171"
"159","#DonDraper
#PacquiaoMayweather
#Portland #PDX @ Portland, OR..center of the Universe https://t.co/vhtQaZC4SO",FALSE,1,NA,2015-05-03 00:51:30,FALSE,NA,"594665551944949761",NA,"<a href=""http://instagram.com"" rel=""nofollow"">Instagram</a>","wilgowilco",0,FALSE,FALSE,"-122.61748667","45.51196333"
"160","I'm at Gracie's Hammer II in Portland, OR https://t.co/zI353fP3ob",FALSE,0,NA,2015-05-03 00:48:07,FALSE,NA,"594664698949312513",NA,"<a href=""http://foursquare.com"" rel=""nofollow"">Foursquare</a>","hammeroffunk",0,FALSE,FALSE,"-122.68458694","45.45683092"
"161","First night success ‚úîÔ∏è @ Portland, Oregon https://t.co/5hwcQqnhu7",FALSE,0,NA,2015-05-03 00:46:58,FALSE,NA,"594664409747877888",NA,"<a href=""http://instagram.com"" rel=""nofollow"">Instagram</a>","kinsig3",0,FALSE,FALSE,"-122.682","45.52"
"162","""Agak agak boleh jumpa kasut tak kat sini?"" @ Portland Saturday Market https://t.co/o4Ot2ysj3M",FALSE,0,NA,2015-05-03 00:44:37,FALSE,NA,"594663817587597312",NA,"<a href=""http://instagram.com"" rel=""nofollow"">Instagram</a>","annursyi19",0,FALSE,FALSE,"-122.67067342","45.52252551"
"163","CEP Seeking Physician Assistants &amp; Nurse Practitioners in Portland, OR (#Portland, OR) http://t.co/xLZXkEQsYx #Physician #Job #Jobs",FALSE,0,NA,2015-05-03 00:40:58,FALSE,NA,"594662898951041024",NA,"<a href=""http://tweetmyjobs.com"" rel=""nofollow"">SafeTweet by TweetMyJOBS</a>","AHPhysicianJobs",0,FALSE,FALSE,"-122.6762071","45.5234515"
"164","Portland, OR
17.6¬∞C | 63.7¬∞F
Humidity: 2%
Clear http://t.co/m2yemp0PtH",FALSE,0,NA,2015-05-03 00:40:41,FALSE,NA,"594662827798978561",NA,"<a href=""http://twitter.com/akari_oozora"" rel=""nofollow"">Â§ßÁ©∫„ÅäÂ§©Ê∞ó</a>","akari_oozora",1,FALSE,FALSE,"-122.69132233","45.4982872"
"165","I'm at Punch Bowl Social - @punchbowlpdx in Portland, OR https://t.co/VzFxDVmTPE",FALSE,0,NA,2015-05-03 00:37:10,FALSE,NA,"594661943174156288",NA,"<a href=""http://foursquare.com"" rel=""nofollow"">Foursquare</a>","ernearnn",0,FALSE,FALSE,"-122.67602675","45.51832683"
"166","Almost #spring exploring  #Portland @ Ira Keller Fountain https://t.co/cVx5Df8d1b",FALSE,0,NA,2015-05-03 00:36:20,FALSE,NA,"594661736101326848",NA,"<a href=""http://instagram.com"" rel=""nofollow"">Instagram</a>","JavierRCruz",0,FALSE,FALSE,"-122.67846","45.512918"
"167","Yup... Aiden #Hackney is not thrilled #kids #Montavilla #Portland #Oregon #PNW @ Tragic Photography,‚Ä¶ https://t.co/GUGjpgtdwP",FALSE,0,NA,2015-05-03 00:31:46,FALSE,NA,"594660586799116288",NA,"<a href=""http://instagram.com"" rel=""nofollow"">Instagram</a>","joshuaxhunter",0,FALSE,FALSE,"-122.58665359","45.52529542"
"168","Pre Timbers game meat festival! #RCTID #3points @ Fogo de Ch√£o Portland https://t.co/UlEtSF2WXu",FALSE,2,NA,2015-05-03 00:30:04,FALSE,NA,"594660157315031040",NA,"<a href=""http://instagram.com"" rel=""nofollow"">Instagram</a>","tmart9",0,FALSE,FALSE,"-122.679176","45.517319"
"169","RT @itsmikebivins: Riot cops standing firm, but so are protesters at base of Burnside bridge. @hillarylake @therearguard #Portland http://t‚Ä¶",FALSE,0,NA,2015-05-03 00:29:56,FALSE,NA,"594660123957538816",NA,"<a href=""http://twitter.com/download/iphone"" rel=""nofollow"">Twitter for iPhone</a>","alessandraoxox",49,TRUE,FALSE,NA,NA
